<?xml version="1.0" encoding="UTF-8" standalone="yes"?>
<festivais xmlns:xsi="http://www.w3.org/2001/XMLSchema-instance">
	<festival>
		<nome>Vodafone Paredes de Coura</nome>
		<localização/>
		<latitude>41.886</latitude>
		<longitude>-8.615</longitude>
		<Pais>Portugal</Pais>
		<epoca>Verão</epoca>
		<preco>Caro</preco>
		<comeco>1993</comeco>
	</festival>
	<festival>
		<nome> Meo Marés Vivas</nome>
		<localização/>
		<latitude>41.133333</latitude>
		<longitude>-8.616667</longitude>
		<Pais>Portugal</Pais>
		<epoca>Verão</epoca>
		<preco>Caro</preco>
		<comeco>1999</comeco>
	</festival>
	<festival>
		<nome>EDPCOOLJAZZ</nome>
		<localização/>
		<latitude>38.6833</latitude>
		<longitude>-9.3333</longitude>
		<Pais>Portugal</Pais>
		<epoca>Verão</epoca>
		<preco>Caro</preco>
		<comeco>2003</comeco>
	</festival>
	<festival>
		<nome>Caparica Primavera Surf Fest</nome>
		<localização/>
		<latitude>38.533333</latitude>
		<longitude>-8.883333</longitude>
		<Pais>Portugal</Pais>
		<epoca>Primavera</epoca>
		<preco>Caro</preco>
		<comeco>2015</comeco>
	</festival>
	<festival>
		<nome>Nos Alive</nome>
		<localização/>
		<latitude>38.716667</latitude>
		<longitude>-9.25</longitude>
		<Pais>Portugal</Pais>
		<epoca>Primavera</epoca>
		<preco>Caro</preco>
		<comeco>2007</comeco>
	</festival>
	<festival>
		<nome>NEOPOP</nome>
		<localização/>
		<latitude>41.712778</latitude>
		<longitude>-8.850278</longitude>
		<Pais>Portugal</Pais>
		<epoca>Verão</epoca>
		<preco>Caro</preco>
		<comeco>2006</comeco>
	</festival>
	
</festivais>